$GPGGA,201805.635,5025.960,N,03028.770,E,1,12,1.0,0.0,M,0.0,M,,*64
$GPGSA,A,3,01,02,03,04,05,06,07,08,09,10,11,12,1.0,1.0,1.0*30
$GPRMC,201805.635,A,5025.960,N,03028.770,E,038.9,080.2,110220,000.0,W*78
$GPGGA,201806.635,5025.963,N,03028.786,E,1,12,1.0,0.0,M,0.0,M,,*6D
$GPGSA,A,3,01,02,03,04,05,06,07,08,09,10,11,12,1.0,1.0,1.0*30
$GPRMC,201806.635,A,5025.963,N,03028.786,E,038.9,080.2,110220,000.0,W*71
$GPGGA,201807.635,5025.965,N,03028.803,E,1,12,1.0,0.0,M,0.0,M,,*68
$GPGSA,A,3,01,02,03,04,05,06,07,08,09,10,11,12,1.0,1.0,1.0*30
$GPRMC,201807.635,A,5025.965,N,03028.803,E,038.9,080.2,110220,000.0,W*74
$GPGGA,201808.635,5025.968,N,03028.819,E,1,12,1.0,0.0,M,0.0,M,,*61
$GPGSA,A,3,01,02,03,04,05,06,07,08,09,10,11,12,1.0,1.0,1.0*30
$GPRMC,201808.635,A,5025.968,N,03028.819,E,038.9,080.2,110220,000.0,W*7D
$GPGGA,201809.635,5025.971,N,03028.835,E,1,12,1.0,0.0,M,0.0,M,,*66
$GPGSA,A,3,01,02,03,04,05,06,07,08,09,10,11,12,1.0,1.0,1.0*30
$GPRMC,201809.635,A,5025.971,N,03028.835,E,038.9,080.2,110220,000.0,W*7A
$GPGGA,201810.635,5025.974,N,03028.852,E,1,12,1.0,0.0,M,0.0,M,,*6A
$GPGSA,A,3,01,02,03,04,05,06,07,08,09,10,11,12,1.0,1.0,1.0*30
$GPRMC,201810.635,A,5025.974,N,03028.852,E,038.9,080.2,110220,000.0,W*76
$GPGGA,201811.635,5025.977,N,03028.868,E,1,12,1.0,0.0,M,0.0,M,,*61
$GPGSA,A,3,01,02,03,04,05,06,07,08,09,10,11,12,1.0,1.0,1.0*30
$GPRMC,201811.635,A,5025.977,N,03028.868,E,038.9,080.2,110220,000.0,W*7D
$GPGGA,201812.635,5025.979,N,03028.884,E,1,12,1.0,0.0,M,0.0,M,,*6E
$GPGSA,A,3,01,02,03,04,05,06,07,08,09,10,11,12,1.0,1.0,1.0*30
$GPRMC,201812.635,A,5025.979,N,03028.884,E,038.9,080.2,110220,000.0,W*72
$GPGGA,201813.635,5025.982,N,03028.901,E,1,12,1.0,0.0,M,0.0,M,,*67
$GPGSA,A,3,01,02,03,04,05,06,07,08,09,10,11,12,1.0,1.0,1.0*30
$GPRMC,201813.635,A,5025.982,N,03028.901,E,038.9,080.2,110220,000.0,W*7B
$GPGGA,201814.635,5025.985,N,03028.917,E,1,12,1.0,0.0,M,0.0,M,,*60
$GPGSA,A,3,01,02,03,04,05,06,07,08,09,10,11,12,1.0,1.0,1.0*30
$GPRMC,201814.635,A,5025.985,N,03028.917,E,038.9,080.2,110220,000.0,W*7C
$GPGGA,201815.635,5025.988,N,03028.933,E,1,12,1.0,0.0,M,0.0,M,,*6A
$GPGSA,A,3,01,02,03,04,05,06,07,08,09,10,11,12,1.0,1.0,1.0*30
$GPRMC,201815.635,A,5025.988,N,03028.933,E,038.9,080.2,110220,000.0,W*76
$GPGGA,201816.635,5025.991,N,03028.950,E,1,12,1.0,0.0,M,0.0,M,,*64
$GPGSA,A,3,01,02,03,04,05,06,07,08,09,10,11,12,1.0,1.0,1.0*30
$GPRMC,201816.635,A,5025.991,N,03028.950,E,038.9,080.2,110220,000.0,W*78
$GPGGA,201817.635,5025.993,N,03028.966,E,1,12,1.0,0.0,M,0.0,M,,*62
$GPGSA,A,3,01,02,03,04,05,06,07,08,09,10,11,12,1.0,1.0,1.0*30
$GPRMC,201817.635,A,5025.993,N,03028.966,E,038.9,080.2,110220,000.0,W*7E
$GPGGA,201818.635,5025.996,N,03028.982,E,1,12,1.0,0.0,M,0.0,M,,*62
$GPGSA,A,3,01,02,03,04,05,06,07,08,09,10,11,12,1.0,1.0,1.0*30
$GPRMC,201818.635,A,5025.996,N,03028.982,E,038.9,080.2,110220,000.0,W*7E
$GPGGA,201819.635,5025.999,N,03028.999,E,1,12,1.0,0.0,M,0.0,M,,*66
$GPGSA,A,3,01,02,03,04,05,06,07,08,09,10,11,12,1.0,1.0,1.0*30
$GPRMC,201819.635,A,5025.999,N,03028.999,E,038.9,080.2,110220,000.0,W*7A
$GPGGA,201820.635,5026.002,N,03029.015,E,1,12,1.0,0.0,M,0.0,M,,*68
$GPGSA,A,3,01,02,03,04,05,06,07,08,09,10,11,12,1.0,1.0,1.0*30
$GPRMC,201820.635,A,5026.002,N,03029.015,E,038.9,067.8,110220,000.0,W*77
$GPGGA,201821.635,5026.008,N,03029.029,E,1,12,1.0,0.0,M,0.0,M,,*6C
$GPGSA,A,3,01,02,03,04,05,06,07,08,09,10,11,12,1.0,1.0,1.0*30
$GPRMC,201821.635,A,5026.008,N,03029.029,E,038.9,067.8,110220,000.0,W*73
$GPGGA,201822.635,5026.013,N,03029.044,E,1,12,1.0,0.0,M,0.0,M,,*6E
$GPGSA,A,3,01,02,03,04,05,06,07,08,09,10,11,12,1.0,1.0,1.0*30
$GPRMC,201822.635,A,5026.013,N,03029.044,E,038.9,067.8,110220,000.0,W*71
$GPGGA,201823.635,5026.019,N,03029.058,E,1,12,1.0,0.0,M,0.0,M,,*68
$GPGSA,A,3,01,02,03,04,05,06,07,08,09,10,11,12,1.0,1.0,1.0*30
$GPRMC,201823.635,A,5026.019,N,03029.058,E,038.9,067.8,110220,000.0,W*77
$GPGGA,201824.635,5026.025,N,03029.072,E,1,12,1.0,0.0,M,0.0,M,,*68
$GPGSA,A,3,01,02,03,04,05,06,07,08,09,10,11,12,1.0,1.0,1.0*30
$GPRMC,201824.635,A,5026.025,N,03029.072,E,038.9,067.8,110220,000.0,W*77
$GPGGA,201825.635,5026.031,N,03029.087,E,1,12,1.0,0.0,M,0.0,M,,*66
$GPGSA,A,3,01,02,03,04,05,06,07,08,09,10,11,12,1.0,1.0,1.0*30
$GPRMC,201825.635,A,5026.031,N,03029.087,E,038.9,067.8,110220,000.0,W*79
$GPGGA,201826.635,5026.037,N,03029.101,E,1,12,1.0,0.0,M,0.0,M,,*6C
$GPGSA,A,3,01,02,03,04,05,06,07,08,09,10,11,12,1.0,1.0,1.0*30
$GPRMC,201826.635,A,5026.037,N,03029.101,E,038.9,067.8,110220,000.0,W*73
$GPGGA,201827.635,5026.042,N,03029.115,E,1,12,1.0,0.0,M,0.0,M,,*6A
$GPGSA,A,3,01,02,03,04,05,06,07,08,09,10,11,12,1.0,1.0,1.0*30
$GPRMC,201827.635,A,5026.042,N,03029.115,E,038.9,062.1,110220,000.0,W*79
$GPGGA,201828.635,5026.049,N,03029.128,E,1,12,1.0,0.0,M,0.0,M,,*60
$GPGSA,A,3,01,02,03,04,05,06,07,08,09,10,11,12,1.0,1.0,1.0*30
$GPRMC,201828.635,A,5026.049,N,03029.128,E,038.9,062.1,110220,000.0,W*73
$GPGGA,201829.635,5026.056,N,03029.141,E,1,12,1.0,0.0,M,0.0,M,,*60
$GPGSA,A,3,01,02,03,04,05,06,07,08,09,10,11,12,1.0,1.0,1.0*30
$GPRMC,201829.635,A,5026.056,N,03029.141,E,038.9,062.1,110220,000.0,W*73
$GPGGA,201830.635,5026.063,N,03029.154,E,1,12,1.0,0.0,M,0.0,M,,*6A
$GPGSA,A,3,01,02,03,04,05,06,07,08,09,10,11,12,1.0,1.0,1.0*30
$GPRMC,201830.635,A,5026.063,N,03029.154,E,038.9,062.1,110220,000.0,W*79
$GPGGA,201831.635,5026.070,N,03029.167,E,1,12,1.0,0.0,M,0.0,M,,*69
$GPGSA,A,3,01,02,03,04,05,06,07,08,09,10,11,12,1.0,1.0,1.0*30
$GPRMC,201831.635,A,5026.070,N,03029.167,E,038.9,062.1,110220,000.0,W*7A
$GPGGA,201832.635,5026.077,N,03029.180,E,1,12,1.0,0.0,M,0.0,M,,*64
$GPGSA,A,3,01,02,03,04,05,06,07,08,09,10,11,12,1.0,1.0,1.0*30
$GPRMC,201832.635,A,5026.077,N,03029.180,E,038.9,062.1,110220,000.0,W*77
$GPGGA,201833.635,5026.084,N,03029.193,E,1,12,1.0,0.0,M,0.0,M,,*6B
$GPGSA,A,3,01,02,03,04,05,06,07,08,09,10,11,12,1.0,1.0,1.0*30
$GPRMC,201833.635,A,5026.084,N,03029.193,E,038.9,062.1,110220,000.0,W*78
$GPGGA,201834.635,5026.091,N,03029.207,E,1,12,1.0,0.0,M,0.0,M,,*66
$GPGSA,A,3,01,02,03,04,05,06,07,08,09,10,11,12,1.0,1.0,1.0*30
$GPRMC,201834.635,A,5026.091,N,03029.207,E,038.9,062.1,110220,000.0,W*75
$GPGGA,201835.635,5026.097,N,03029.220,E,1,12,1.0,0.0,M,0.0,M,,*64
$GPGSA,A,3,01,02,03,04,05,06,07,08,09,10,11,12,1.0,1.0,1.0*30
$GPRMC,201835.635,A,5026.097,N,03029.220,E,038.9,062.1,110220,000.0,W*77
$GPGGA,201836.635,5026.104,N,03029.233,E,1,12,1.0,0.0,M,0.0,M,,*6E
$GPGSA,A,3,01,02,03,04,05,06,07,08,09,10,11,12,1.0,1.0,1.0*30
$GPRMC,201836.635,A,5026.104,N,03029.233,E,038.9,062.1,110220,000.0,W*7D
$GPGGA,201837.635,5026.111,N,03029.246,E,1,12,1.0,0.0,M,0.0,M,,*69
$GPGSA,A,3,01,02,03,04,05,06,07,08,09,10,11,12,1.0,1.0,1.0*30
$GPRMC,201837.635,A,5026.111,N,03029.246,E,038.9,062.1,110220,000.0,W*7A
$GPGGA,201838.635,5026.118,N,03029.259,E,1,12,1.0,0.0,M,0.0,M,,*61
$GPGSA,A,3,01,02,03,04,05,06,07,08,09,10,11,12,1.0,1.0,1.0*30
$GPRMC,201838.635,A,5026.118,N,03029.259,E,038.9,062.1,110220,000.0,W*72
$GPGGA,201839.635,5026.125,N,03029.272,E,1,12,1.0,0.0,M,0.0,M,,*67
$GPGSA,A,3,01,02,03,04,05,06,07,08,09,10,11,12,1.0,1.0,1.0*30
$GPRMC,201839.635,A,5026.125,N,03029.272,E,038.9,062.1,110220,000.0,W*74
$GPGGA,201840.635,5026.132,N,03029.285,E,1,12,1.0,0.0,M,0.0,M,,*67
$GPGSA,A,3,01,02,03,04,05,06,07,08,09,10,11,12,1.0,1.0,1.0*30
$GPRMC,201840.635,A,5026.132,N,03029.285,E,038.9,062.8,110220,000.0,W*7D
$GPGGA,201841.635,5026.139,N,03029.298,E,1,12,1.0,0.0,M,0.0,M,,*61
$GPGSA,A,3,01,02,03,04,05,06,07,08,09,10,11,12,1.0,1.0,1.0*30
$GPRMC,201841.635,A,5026.139,N,03029.298,E,038.9,062.8,110220,000.0,W*7B
$GPGGA,201842.635,5026.145,N,03029.311,E,1,12,1.0,0.0,M,0.0,M,,*69
$GPGSA,A,3,01,02,03,04,05,06,07,08,09,10,11,12,1.0,1.0,1.0*30
$GPRMC,201842.635,A,5026.145,N,03029.311,E,038.9,062.8,110220,000.0,W*73
$GPGGA,201843.635,5026.152,N,03029.325,E,1,12,1.0,0.0,M,0.0,M,,*69
$GPGSA,A,3,01,02,03,04,05,06,07,08,09,10,11,12,1.0,1.0,1.0*30
$GPRMC,201843.635,A,5026.152,N,03029.325,E,038.9,062.8,110220,000.0,W*73
$GPGGA,201844.635,5026.159,N,03029.338,E,1,12,1.0,0.0,M,0.0,M,,*69
$GPGSA,A,3,01,02,03,04,05,06,07,08,09,10,11,12,1.0,1.0,1.0*30
$GPRMC,201844.635,A,5026.159,N,03029.338,E,038.9,062.8,110220,000.0,W*73
$GPGGA,201845.635,5026.166,N,03029.351,E,1,12,1.0,0.0,M,0.0,M,,*6B
$GPGSA,A,3,01,02,03,04,05,06,07,08,09,10,11,12,1.0,1.0,1.0*30
$GPRMC,201845.635,A,5026.166,N,03029.351,E,038.9,062.8,110220,000.0,W*71
$GPGGA,201846.635,5026.172,N,03029.364,E,1,12,1.0,0.0,M,0.0,M,,*6B
$GPGSA,A,3,01,02,03,04,05,06,07,08,09,10,11,12,1.0,1.0,1.0*30
$GPRMC,201846.635,A,5026.172,N,03029.364,E,038.9,062.8,110220,000.0,W*71
$GPGGA,201847.635,5026.179,N,03029.377,E,1,12,1.0,0.0,M,0.0,M,,*63
$GPGSA,A,3,01,02,03,04,05,06,07,08,09,10,11,12,1.0,1.0,1.0*30
$GPRMC,201847.635,A,5026.179,N,03029.377,E,038.9,062.8,110220,000.0,W*79
$GPGGA,201848.635,5026.186,N,03029.391,E,1,12,1.0,0.0,M,0.0,M,,*64
$GPGSA,A,3,01,02,03,04,05,06,07,08,09,10,11,12,1.0,1.0,1.0*30
$GPRMC,201848.635,A,5026.186,N,03029.391,E,038.9,062.8,110220,000.0,W*7E
$GPGGA,201849.635,5026.193,N,03029.404,E,1,12,1.0,0.0,M,0.0,M,,*6A
$GPGSA,A,3,01,02,03,04,05,06,07,08,09,10,11,12,1.0,1.0,1.0*30
$GPRMC,201849.635,A,5026.193,N,03029.404,E,038.9,062.8,110220,000.0,W*70
$GPGGA,201850.635,5026.199,N,03029.417,E,1,12,1.0,0.0,M,0.0,M,,*6A
$GPGSA,A,3,01,02,03,04,05,06,07,08,09,10,11,12,1.0,1.0,1.0*30
$GPRMC,201850.635,A,5026.199,N,03029.417,E,038.9,074.2,110220,000.0,W*7D
$GPGGA,201851.635,5026.204,N,03029.433,E,1,12,1.0,0.0,M,0.0,M,,*6A
$GPGSA,A,3,01,02,03,04,05,06,07,08,09,10,11,12,1.0,1.0,1.0*30
$GPRMC,201851.635,A,5026.204,N,03029.433,E,038.9,074.2,110220,000.0,W*7D
$GPGGA,201852.635,5026.208,N,03029.448,E,1,12,1.0,0.0,M,0.0,M,,*69
$GPGSA,A,3,01,02,03,04,05,06,07,08,09,10,11,12,1.0,1.0,1.0*30
$GPRMC,201852.635,A,5026.208,N,03029.448,E,038.9,074.2,110220,000.0,W*7E
$GPGGA,201853.635,5026.212,N,03029.464,E,1,12,1.0,0.0,M,0.0,M,,*6D
$GPGSA,A,3,01,02,03,04,05,06,07,08,09,10,11,12,1.0,1.0,1.0*30
$GPRMC,201853.635,A,5026.212,N,03029.464,E,038.9,080.7,110220,000.0,W*74
$GPGGA,201854.635,5026.215,N,03029.480,E,1,12,1.0,0.0,M,0.0,M,,*67
$GPGSA,A,3,01,02,03,04,05,06,07,08,09,10,11,12,1.0,1.0,1.0*30
$GPRMC,201854.635,A,5026.215,N,03029.480,E,038.9,080.7,110220,000.0,W*7E
$GPGGA,201855.635,5026.218,N,03029.496,E,1,12,1.0,0.0,M,0.0,M,,*6C
$GPGSA,A,3,01,02,03,04,05,06,07,08,09,10,11,12,1.0,1.0,1.0*30
$GPRMC,201855.635,A,5026.218,N,03029.496,E,038.9,073.8,110220,000.0,W*76
$GPGGA,201856.635,5026.222,N,03029.512,E,1,12,1.0,0.0,M,0.0,M,,*6B
$GPGSA,A,3,01,02,03,04,05,06,07,08,09,10,11,12,1.0,1.0,1.0*30
$GPRMC,201856.635,A,5026.222,N,03029.512,E,038.9,073.8,110220,000.0,W*71
$GPGGA,201857.635,5026.227,N,03029.527,E,1,12,1.0,0.0,M,0.0,M,,*69
$GPGSA,A,3,01,02,03,04,05,06,07,08,09,10,11,12,1.0,1.0,1.0*30
$GPRMC,201857.635,A,5026.227,N,03029.527,E,038.9,063.0,110220,000.0,W*7A
$GPGGA,201858.635,5026.234,N,03029.540,E,1,12,1.0,0.0,M,0.0,M,,*65
$GPGSA,A,3,01,02,03,04,05,06,07,08,09,10,11,12,1.0,1.0,1.0*30
$GPRMC,201858.635,A,5026.234,N,03029.540,E,038.9,063.0,110220,000.0,W*76
$GPGGA,201859.635,5026.240,N,03029.554,E,1,12,1.0,0.0,M,0.0,M,,*62
$GPGSA,A,3,01,02,03,04,05,06,07,08,09,10,11,12,1.0,1.0,1.0*30
$GPRMC,201859.635,A,5026.240,N,03029.554,E,038.9,057.7,110220,000.0,W*71
$GPGGA,201900.635,5026.248,N,03029.566,E,1,12,1.0,0.0,M,0.0,M,,*66
$GPGSA,A,3,01,02,03,04,05,06,07,08,09,10,11,12,1.0,1.0,1.0*30
$GPRMC,201900.635,A,5026.248,N,03029.566,E,038.9,057.7,110220,000.0,W*75
$GPGGA,201901.635,5026.255,N,03029.578,E,1,12,1.0,0.0,M,0.0,M,,*64
$GPGSA,A,3,01,02,03,04,05,06,07,08,09,10,11,12,1.0,1.0,1.0*30
$GPRMC,201901.635,A,5026.255,N,03029.578,E,038.9,042.4,110220,000.0,W*70
$GPGGA,201902.635,5026.265,N,03029.586,E,1,12,1.0,0.0,M,0.0,M,,*65
$GPGSA,A,3,01,02,03,04,05,06,07,08,09,10,11,12,1.0,1.0,1.0*30
$GPRMC,201902.635,A,5026.265,N,03029.586,E,038.9,042.4,110220,000.0,W*71
$GPGGA,201903.635,5026.274,N,03029.595,E,1,12,1.0,0.0,M,0.0,M,,*66
$GPGSA,A,3,01,02,03,04,05,06,07,08,09,10,11,12,1.0,1.0,1.0*30
$GPRMC,201903.635,A,5026.274,N,03029.595,E,038.9,042.4,110220,000.0,W*72
$GPGGA,201904.635,5026.283,N,03029.603,E,1,12,1.0,0.0,M,0.0,M,,*65
$GPGSA,A,3,01,02,03,04,05,06,07,08,09,10,11,12,1.0,1.0,1.0*30
$GPRMC,201904.635,A,5026.283,N,03029.603,E,038.9,042.4,110220,000.0,W*71
$GPGGA,201905.635,5026.293,N,03029.612,E,1,12,1.0,0.0,M,0.0,M,,*65
$GPGSA,A,3,01,02,03,04,05,06,07,08,09,10,11,12,1.0,1.0,1.0*30
$GPRMC,201905.635,A,5026.293,N,03029.612,E,038.9,051.5,110220,000.0,W*72
$GPGGA,201906.635,5026.301,N,03029.623,E,1,12,1.0,0.0,M,0.0,M,,*6E
$GPGSA,A,3,01,02,03,04,05,06,07,08,09,10,11,12,1.0,1.0,1.0*30
$GPRMC,201906.635,A,5026.301,N,03029.623,E,038.9,051.5,110220,000.0,W*79
$GPGGA,201907.635,5026.309,N,03029.633,E,1,12,1.0,0.0,M,0.0,M,,*66
$GPGSA,A,3,01,02,03,04,05,06,07,08,09,10,11,12,1.0,1.0,1.0*30
$GPRMC,201907.635,A,5026.309,N,03029.633,E,038.9,065.3,110220,000.0,W*70
$GPGGA,201908.635,5026.316,N,03029.647,E,1,12,1.0,0.0,M,0.0,M,,*64
$GPGSA,A,3,01,02,03,04,05,06,07,08,09,10,11,12,1.0,1.0,1.0*30
$GPRMC,201908.635,A,5026.316,N,03029.647,E,038.9,065.3,110220,000.0,W*72
$GPGGA,201909.635,5026.322,N,03029.661,E,1,12,1.0,0.0,M,0.0,M,,*66
$GPGSA,A,3,01,02,03,04,05,06,07,08,09,10,11,12,1.0,1.0,1.0*30
$GPRMC,201909.635,A,5026.322,N,03029.661,E,038.9,065.3,110220,000.0,W*70
$GPGGA,201910.635,5026.328,N,03029.674,E,1,12,1.0,0.0,M,0.0,M,,*60
$GPGSA,A,3,01,02,03,04,05,06,07,08,09,10,11,12,1.0,1.0,1.0*30
$GPRMC,201910.635,A,5026.328,N,03029.674,E,038.9,065.3,110220,000.0,W*76
$GPGGA,201911.635,5026.335,N,03029.688,E,1,12,1.0,0.0,M,0.0,M,,*6E
$GPGSA,A,3,01,02,03,04,05,06,07,08,09,10,11,12,1.0,1.0,1.0*30
$GPRMC,201911.635,A,5026.335,N,03029.688,E,038.9,065.3,110220,000.0,W*78
$GPGGA,201912.635,5026.341,N,03029.702,E,1,12,1.0,0.0,M,0.0,M,,*6D
$GPGSA,A,3,01,02,03,04,05,06,07,08,09,10,11,12,1.0,1.0,1.0*30
$GPRMC,201912.635,A,5026.341,N,03029.702,E,038.9,065.3,110220,000.0,W*7B
$GPGGA,201913.635,5026.347,N,03029.716,E,1,12,1.0,0.0,M,0.0,M,,*6F
$GPGSA,A,3,01,02,03,04,05,06,07,08,09,10,11,12,1.0,1.0,1.0*30
$GPRMC,201913.635,A,5026.347,N,03029.716,E,038.9,065.3,110220,000.0,W*79
$GPGGA,201914.635,5026.354,N,03029.729,E,1,12,1.0,0.0,M,0.0,M,,*66
$GPGSA,A,3,01,02,03,04,05,06,07,08,09,10,11,12,1.0,1.0,1.0*30
$GPRMC,201914.635,A,5026.354,N,03029.729,E,038.9,065.3,110220,000.0,W*70
$GPGGA,201915.635,5026.360,N,03029.743,E,1,12,1.0,0.0,M,0.0,M,,*6C
$GPGSA,A,3,01,02,03,04,05,06,07,08,09,10,11,12,1.0,1.0,1.0*30
$GPRMC,201915.635,A,5026.360,N,03029.743,E,038.9,065.3,110220,000.0,W*7A
$GPGGA,201916.635,5026.366,N,03029.757,E,1,12,1.0,0.0,M,0.0,M,,*6C
$GPGSA,A,3,01,02,03,04,05,06,07,08,09,10,11,12,1.0,1.0,1.0*30
$GPRMC,201916.635,A,5026.366,N,03029.757,E,038.9,065.3,110220,000.0,W*7A
$GPGGA,201917.635,5026.373,N,03029.771,E,1,12,1.0,0.0,M,0.0,M,,*6D
$GPGSA,A,3,01,02,03,04,05,06,07,08,09,10,11,12,1.0,1.0,1.0*30
$GPRMC,201917.635,A,5026.373,N,03029.771,E,038.9,065.3,110220,000.0,W*7B
$GPGGA,201918.635,5026.379,N,03029.784,E,1,12,1.0,0.0,M,0.0,M,,*62
$GPGSA,A,3,01,02,03,04,05,06,07,08,09,10,11,12,1.0,1.0,1.0*30
$GPRMC,201918.635,A,5026.379,N,03029.784,E,038.9,065.3,110220,000.0,W*74
$GPGGA,201919.635,5026.385,N,03029.798,E,1,12,1.0,0.0,M,0.0,M,,*6D
$GPGSA,A,3,01,02,03,04,05,06,07,08,09,10,11,12,1.0,1.0,1.0*30
$GPRMC,201919.635,A,5026.385,N,03029.798,E,038.9,065.3,110220,000.0,W*7B
$GPGGA,201920.635,5026.392,N,03029.812,E,1,12,1.0,0.0,M,0.0,M,,*6C
$GPGSA,A,3,01,02,03,04,05,06,07,08,09,10,11,12,1.0,1.0,1.0*30
$GPRMC,201920.635,A,5026.392,N,03029.812,E,038.9,065.3,110220,000.0,W*7A
$GPGGA,201921.635,5026.398,N,03029.826,E,1,12,1.0,0.0,M,0.0,M,,*60
$GPGSA,A,3,01,02,03,04,05,06,07,08,09,10,11,12,1.0,1.0,1.0*30
$GPRMC,201921.635,A,5026.398,N,03029.826,E,038.9,065.3,110220,000.0,W*76
$GPGGA,201922.635,5026.404,N,03029.839,E,1,12,1.0,0.0,M,0.0,M,,*6F
$GPGSA,A,3,01,02,03,04,05,06,07,08,09,10,11,12,1.0,1.0,1.0*30
$GPRMC,201922.635,A,5026.404,N,03029.839,E,038.9,065.3,110220,000.0,W*79
$GPGGA,201923.635,5026.410,N,03029.853,E,1,12,1.0,0.0,M,0.0,M,,*67
$GPGSA,A,3,01,02,03,04,05,06,07,08,09,10,11,12,1.0,1.0,1.0*30
$GPRMC,201923.635,A,5026.410,N,03029.853,E,038.9,066.1,110220,000.0,W*70
$GPGGA,201924.635,5026.417,N,03029.867,E,1,12,1.0,0.0,M,0.0,M,,*60
$GPGSA,A,3,01,02,03,04,05,06,07,08,09,10,11,12,1.0,1.0,1.0*30
$GPRMC,201924.635,A,5026.417,N,03029.867,E,038.9,066.1,110220,000.0,W*77
$GPGGA,201925.635,5026.423,N,03029.881,E,1,12,1.0,0.0,M,0.0,M,,*6E
$GPGSA,A,3,01,02,03,04,05,06,07,08,09,10,11,12,1.0,1.0,1.0*30
$GPRMC,201925.635,A,5026.423,N,03029.881,E,038.9,066.1,110220,000.0,W*79
$GPGGA,201926.635,5026.429,N,03029.895,E,1,12,1.0,0.0,M,0.0,M,,*62
$GPGSA,A,3,01,02,03,04,05,06,07,08,09,10,11,12,1.0,1.0,1.0*30
$GPRMC,201926.635,A,5026.429,N,03029.895,E,038.9,066.1,110220,000.0,W*75
$GPGGA,201927.635,5026.435,N,03029.909,E,1,12,1.0,0.0,M,0.0,M,,*6A
$GPGSA,A,3,01,02,03,04,05,06,07,08,09,10,11,12,1.0,1.0,1.0*30
$GPRMC,201927.635,A,5026.435,N,03029.909,E,038.9,066.1,110220,000.0,W*7D
$GPGGA,201928.635,5026.441,N,03029.923,E,1,12,1.0,0.0,M,0.0,M,,*6E
$GPGSA,A,3,01,02,03,04,05,06,07,08,09,10,11,12,1.0,1.0,1.0*30
$GPRMC,201928.635,A,5026.441,N,03029.923,E,038.9,066.1,110220,000.0,W*79
$GPGGA,201929.635,5026.447,N,03029.937,E,1,12,1.0,0.0,M,0.0,M,,*6C
$GPGSA,A,3,01,02,03,04,05,06,07,08,09,10,11,12,1.0,1.0,1.0*30
$GPRMC,201929.635,A,5026.447,N,03029.937,E,038.9,066.1,110220,000.0,W*7B
$GPGGA,201930.635,5026.453,N,03029.951,E,1,12,1.0,0.0,M,0.0,M,,*61
$GPGSA,A,3,01,02,03,04,05,06,07,08,09,10,11,12,1.0,1.0,1.0*30
$GPRMC,201930.635,A,5026.453,N,03029.951,E,038.9,066.1,110220,000.0,W*76
$GPGGA,201931.635,5026.460,N,03029.965,E,1,12,1.0,0.0,M,0.0,M,,*67
$GPGSA,A,3,01,02,03,04,05,06,07,08,09,10,11,12,1.0,1.0,1.0*30
$GPRMC,201931.635,A,5026.460,N,03029.965,E,038.9,066.1,110220,000.0,W*70
$GPGGA,201932.635,5026.466,N,03029.979,E,1,12,1.0,0.0,M,0.0,M,,*6F
$GPGSA,A,3,01,02,03,04,05,06,07,08,09,10,11,12,1.0,1.0,1.0*30
$GPRMC,201932.635,A,5026.466,N,03029.979,E,038.9,013.2,110220,000.0,W*79
$GPGGA,201933.635,5026.476,N,03029.981,E,1,12,1.0,0.0,M,0.0,M,,*68
$GPGSA,A,3,01,02,03,04,05,06,07,08,09,10,11,12,1.0,1.0,1.0*30
$GPRMC,201933.635,A,5026.476,N,03029.981,E,038.9,313.6,110220,000.0,W*79
$GPGGA,201934.635,5026.485,N,03029.972,E,1,12,1.0,0.0,M,0.0,M,,*6F
$GPGSA,A,3,01,02,03,04,05,06,07,08,09,10,11,12,1.0,1.0,1.0*30
$GPRMC,201934.635,A,5026.485,N,03029.972,E,038.9,313.6,110220,000.0,W*7E
$GPGGA,201935.635,5026.494,N,03029.962,E,1,12,1.0,0.0,M,0.0,M,,*6F
$GPGSA,A,3,01,02,03,04,05,06,07,08,09,10,11,12,1.0,1.0,1.0*30
$GPRMC,201935.635,A,5026.494,N,03029.962,E,038.9,313.6,110220,000.0,W*7E
$GPGGA,201936.635,5026.503,N,03029.953,E,1,12,1.0,0.0,M,0.0,M,,*61
$GPGSA,A,3,01,02,03,04,05,06,07,08,09,10,11,12,1.0,1.0,1.0*30
$GPRMC,201936.635,A,5026.503,N,03029.953,E,038.9,313.6,110220,000.0,W*70
$GPGGA,201937.635,5026.512,N,03029.943,E,1,12,1.0,0.0,M,0.0,M,,*61
$GPGSA,A,3,01,02,03,04,05,06,07,08,09,10,11,12,1.0,1.0,1.0*30
$GPRMC,201937.635,A,5026.512,N,03029.943,E,038.9,313.6,110220,000.0,W*70
$GPGGA,201938.635,5026.521,N,03029.934,E,1,12,1.0,0.0,M,0.0,M,,*6E
$GPGSA,A,3,01,02,03,04,05,06,07,08,09,10,11,12,1.0,1.0,1.0*30
$GPRMC,201938.635,A,5026.521,N,03029.934,E,038.9,313.6,110220,000.0,W*7F
$GPGGA,201939.635,5026.530,N,03029.924,E,1,12,1.0,0.0,M,0.0,M,,*6E
$GPGSA,A,3,01,02,03,04,05,06,07,08,09,10,11,12,1.0,1.0,1.0*30
$GPRMC,201939.635,A,5026.530,N,03029.924,E,038.9,313.6,110220,000.0,W*7F
$GPGGA,201940.635,5026.539,N,03029.915,E,1,12,1.0,0.0,M,0.0,M,,*6B
$GPGSA,A,3,01,02,03,04,05,06,07,08,09,10,11,12,1.0,1.0,1.0*30
$GPRMC,201940.635,A,5026.539,N,03029.915,E,038.9,313.6,110220,000.0,W*7A
$GPGGA,201941.635,5026.548,N,03029.905,E,1,12,1.0,0.0,M,0.0,M,,*6D
$GPGSA,A,3,01,02,03,04,05,06,07,08,09,10,11,12,1.0,1.0,1.0*30
$GPRMC,201941.635,A,5026.548,N,03029.905,E,038.9,313.6,110220,000.0,W*7C
$GPGGA,201942.635,5026.557,N,03029.896,E,1,12,1.0,0.0,M,0.0,M,,*6B
$GPGSA,A,3,01,02,03,04,05,06,07,08,09,10,11,12,1.0,1.0,1.0*30
$GPRMC,201942.635,A,5026.557,N,03029.896,E,038.9,313.6,110220,000.0,W*7A
$GPGGA,201943.635,5026.566,N,03029.887,E,1,12,1.0,0.0,M,0.0,M,,*68
$GPGSA,A,3,01,02,03,04,05,06,07,08,09,10,11,12,1.0,1.0,1.0*30
$GPRMC,201943.635,A,5026.566,N,03029.887,E,038.9,313.6,110220,000.0,W*79
$GPGGA,201944.635,5026.575,N,03029.877,E,1,12,1.0,0.0,M,0.0,M,,*62
$GPGSA,A,3,01,02,03,04,05,06,07,08,09,10,11,12,1.0,1.0,1.0*30
$GPRMC,201944.635,A,5026.575,N,03029.877,E,038.9,313.6,110220,000.0,W*73
$GPGGA,201945.635,5026.584,N,03029.868,E,1,12,1.0,0.0,M,0.0,M,,*63
$GPGSA,A,3,01,02,03,04,05,06,07,08,09,10,11,12,1.0,1.0,1.0*30
$GPRMC,201945.635,A,5026.584,N,03029.868,E,038.9,313.6,110220,000.0,W*72
$GPGGA,201946.635,5026.593,N,03029.858,E,1,12,1.0,0.0,M,0.0,M,,*65
$GPGSA,A,3,01,02,03,04,05,06,07,08,09,10,11,12,1.0,1.0,1.0*30
$GPRMC,201946.635,A,5026.593,N,03029.858,E,038.9,313.6,110220,000.0,W*74
$GPGGA,201947.635,5026.602,N,03029.849,E,1,12,1.0,0.0,M,0.0,M,,*6F
$GPGSA,A,3,01,02,03,04,05,06,07,08,09,10,11,12,1.0,1.0,1.0*30
$GPRMC,201947.635,A,5026.602,N,03029.849,E,038.9,313.6,110220,000.0,W*7E
$GPGGA,201948.635,5026.611,N,03029.839,E,1,12,1.0,0.0,M,0.0,M,,*65
$GPGSA,A,3,01,02,03,04,05,06,07,08,09,10,11,12,1.0,1.0,1.0*30
$GPRMC,201948.635,A,5026.611,N,03029.839,E,038.9,313.6,110220,000.0,W*74
$GPGGA,201949.635,5026.620,N,03029.830,E,1,12,1.0,0.0,M,0.0,M,,*6F
$GPGSA,A,3,01,02,03,04,05,06,07,08,09,10,11,12,1.0,1.0,1.0*30
$GPRMC,201949.635,A,5026.620,N,03029.830,E,038.9,031.2,110220,000.0,W*79
$GPGGA,201950.635,5026.630,N,03029.836,E,1,12,1.0,0.0,M,0.0,M,,*60
$GPGSA,A,3,01,02,03,04,05,06,07,08,09,10,11,12,1.0,1.0,1.0*30
$GPRMC,201950.635,A,5026.630,N,03029.836,E,038.9,067.4,110220,000.0,W*73
$GPGGA,201951.635,5026.636,N,03029.850,E,1,12,1.0,0.0,M,0.0,M,,*67
$GPGSA,A,3,01,02,03,04,05,06,07,08,09,10,11,12,1.0,1.0,1.0*30
$GPRMC,201951.635,A,5026.636,N,03029.850,E,038.9,067.4,110220,000.0,W*74
$GPGGA,201952.635,5026.642,N,03029.864,E,1,12,1.0,0.0,M,0.0,M,,*60
$GPGSA,A,3,01,02,03,04,05,06,07,08,09,10,11,12,1.0,1.0,1.0*30
$GPRMC,201952.635,A,5026.642,N,03029.864,E,038.9,067.4,110220,000.0,W*73
$GPGGA,201953.635,5026.647,N,03029.879,E,1,12,1.0,0.0,M,0.0,M,,*68
$GPGSA,A,3,01,02,03,04,05,06,07,08,09,10,11,12,1.0,1.0,1.0*30
$GPRMC,201953.635,A,5026.647,N,03029.879,E,038.9,067.4,110220,000.0,W*7B
$GPGGA,201954.635,5026.653,N,03029.893,E,1,12,1.0,0.0,M,0.0,M,,*6E
$GPGSA,A,3,01,02,03,04,05,06,07,08,09,10,11,12,1.0,1.0,1.0*30
$GPRMC,201954.635,A,5026.653,N,03029.893,E,038.9,067.4,110220,000.0,W*7D
$GPGGA,201955.635,5026.659,N,03029.907,E,1,12,1.0,0.0,M,0.0,M,,*69
$GPGSA,A,3,01,02,03,04,05,06,07,08,09,10,11,12,1.0,1.0,1.0*30
$GPRMC,201955.635,A,5026.659,N,03029.907,E,038.9,067.4,110220,000.0,W*7A
$GPGGA,201956.635,5026.665,N,03029.921,E,1,12,1.0,0.0,M,0.0,M,,*61
$GPGSA,A,3,01,02,03,04,05,06,07,08,09,10,11,12,1.0,1.0,1.0*30
$GPRMC,201956.635,A,5026.665,N,03029.921,E,038.9,092.8,110220,000.0,W*74
$GPGGA,201957.635,5026.664,N,03029.938,E,1,12,1.0,0.0,M,0.0,M,,*69
$GPGSA,A,3,01,02,03,04,05,06,07,08,09,10,11,12,1.0,1.0,1.0*30
$GPRMC,201957.635,A,5026.664,N,03029.938,E,038.9,133.9,110220,000.0,W*77
$GPGGA,201958.635,5026.655,N,03029.947,E,1,12,1.0,0.0,M,0.0,M,,*6C
$GPGSA,A,3,01,02,03,04,05,06,07,08,09,10,11,12,1.0,1.0,1.0*30
$GPRMC,201958.635,A,5026.655,N,03029.947,E,038.9,133.9,110220,000.0,W*72
$GPGGA,201959.635,5026.646,N,03029.957,E,1,12,1.0,0.0,M,0.0,M,,*6E
$GPGSA,A,3,01,02,03,04,05,06,07,08,09,10,11,12,1.0,1.0,1.0*30
$GPRMC,201959.635,A,5026.646,N,03029.957,E,038.9,133.9,110220,000.0,W*70
$GPGGA,202000.635,5026.637,N,03029.966,E,1,12,1.0,0.0,M,0.0,M,,*6C
$GPGSA,A,3,01,02,03,04,05,06,07,08,09,10,11,12,1.0,1.0,1.0*30
$GPRMC,202000.635,A,5026.637,N,03029.966,E,038.9,133.9,110220,000.0,W*72
$GPGGA,202001.635,5026.628,N,03029.976,E,1,12,1.0,0.0,M,0.0,M,,*62
$GPGSA,A,3,01,02,03,04,05,06,07,08,09,10,11,12,1.0,1.0,1.0*30
$GPRMC,202001.635,A,5026.628,N,03029.976,E,038.9,133.9,110220,000.0,W*7C
$GPGGA,202002.635,5026.619,N,03029.985,E,1,12,1.0,0.0,M,0.0,M,,*6F
$GPGSA,A,3,01,02,03,04,05,06,07,08,09,10,11,12,1.0,1.0,1.0*30
$GPRMC,202002.635,A,5026.619,N,03029.985,E,038.9,133.9,110220,000.0,W*71
$GPGGA,202003.635,5026.610,N,03029.994,E,1,12,1.0,0.0,M,0.0,M,,*67
$GPGSA,A,3,01,02,03,04,05,06,07,08,09,10,11,12,1.0,1.0,1.0*30
$GPRMC,202003.635,A,5026.610,N,03029.994,E,038.9,133.9,110220,000.0,W*79
$GPGGA,202004.635,5026.601,N,03030.004,E,1,12,1.0,0.0,M,0.0,M,,*68
$GPGSA,A,3,01,02,03,04,05,06,07,08,09,10,11,12,1.0,1.0,1.0*30
$GPRMC,202004.635,A,5026.601,N,03030.004,E,038.9,133.9,110220,000.0,W*76
$GPGGA,202005.635,5026.592,N,03030.013,E,1,12,1.0,0.0,M,0.0,M,,*66
$GPGSA,A,3,01,02,03,04,05,06,07,08,09,10,11,12,1.0,1.0,1.0*30
$GPRMC,202005.635,A,5026.592,N,03030.013,E,038.9,133.9,110220,000.0,W*78
$GPGGA,202006.635,5026.583,N,03030.022,E,1,12,1.0,0.0,M,0.0,M,,*67
$GPGSA,A,3,01,02,03,04,05,06,07,08,09,10,11,12,1.0,1.0,1.0*30
$GPRMC,202006.635,A,5026.583,N,03030.022,E,038.9,133.9,110220,000.0,W*79
$GPGGA,202007.635,5026.574,N,03030.032,E,1,12,1.0,0.0,M,0.0,M,,*6F
$GPGSA,A,3,01,02,03,04,05,06,07,08,09,10,11,12,1.0,1.0,1.0*30
$GPRMC,202007.635,A,5026.574,N,03030.032,E,038.9,133.9,110220,000.0,W*71
$GPGGA,202008.635,5026.565,N,03030.041,E,1,12,1.0,0.0,M,0.0,M,,*64
$GPGSA,A,3,01,02,03,04,05,06,07,08,09,10,11,12,1.0,1.0,1.0*30
$GPRMC,202008.635,A,5026.565,N,03030.041,E,038.9,133.9,110220,000.0,W*7A
$GPGGA,202009.635,5026.556,N,03030.051,E,1,12,1.0,0.0,M,0.0,M,,*64
$GPGSA,A,3,01,02,03,04,05,06,07,08,09,10,11,12,1.0,1.0,1.0*30
$GPRMC,202009.635,A,5026.556,N,03030.051,E,038.9,133.9,110220,000.0,W*7A
$GPGGA,202010.635,5026.547,N,03030.060,E,1,12,1.0,0.0,M,0.0,M,,*6E
$GPGSA,A,3,01,02,03,04,05,06,07,08,09,10,11,12,1.0,1.0,1.0*30
$GPRMC,202010.635,A,5026.547,N,03030.060,E,038.9,133.9,110220,000.0,W*70
$GPGGA,202011.635,5026.538,N,03030.069,E,1,12,1.0,0.0,M,0.0,M,,*6E
$GPGSA,A,3,01,02,03,04,05,06,07,08,09,10,11,12,1.0,1.0,1.0*30
$GPRMC,202011.635,A,5026.538,N,03030.069,E,038.9,133.9,110220,000.0,W*70
$GPGGA,202012.635,5026.529,N,03030.079,E,1,12,1.0,0.0,M,0.0,M,,*6C
$GPGSA,A,3,01,02,03,04,05,06,07,08,09,10,11,12,1.0,1.0,1.0*30
$GPRMC,202012.635,A,5026.529,N,03030.079,E,038.9,133.9,110220,000.0,W*72
$GPGGA,202013.635,5026.520,N,03030.088,E,1,12,1.0,0.0,M,0.0,M,,*6A
$GPGSA,A,3,01,02,03,04,05,06,07,08,09,10,11,12,1.0,1.0,1.0*30
$GPRMC,202013.635,A,5026.520,N,03030.088,E,038.9,226.9,110220,000.0,W*73
$GPGGA,202014.635,5026.512,N,03030.079,E,1,12,1.0,0.0,M,0.0,M,,*62
$GPGSA,A,3,01,02,03,04,05,06,07,08,09,10,11,12,1.0,1.0,1.0*30
$GPRMC,202014.635,A,5026.512,N,03030.079,E,038.9,247.4,110220,000.0,W*71
$GPGGA,202015.635,5026.506,N,03030.064,E,1,12,1.0,0.0,M,0.0,M,,*6A
$GPGSA,A,3,01,02,03,04,05,06,07,08,09,10,11,12,1.0,1.0,1.0*30
$GPRMC,202015.635,A,5026.506,N,03030.064,E,038.9,247.4,110220,000.0,W*79
$GPGGA,202016.635,5026.500,N,03030.050,E,1,12,1.0,0.0,M,0.0,M,,*68
$GPGSA,A,3,01,02,03,04,05,06,07,08,09,10,11,12,1.0,1.0,1.0*30
$GPRMC,202016.635,A,5026.500,N,03030.050,E,038.9,247.4,110220,000.0,W*7B
$GPGGA,202017.635,5026.494,N,03030.036,E,1,12,1.0,0.0,M,0.0,M,,*65
$GPGSA,A,3,01,02,03,04,05,06,07,08,09,10,11,12,1.0,1.0,1.0*30
$GPRMC,202017.635,A,5026.494,N,03030.036,E,038.9,247.4,110220,000.0,W*76
$GPGGA,202018.635,5026.488,N,03030.022,E,1,12,1.0,0.0,M,0.0,M,,*62
$GPGSA,A,3,01,02,03,04,05,06,07,08,09,10,11,12,1.0,1.0,1.0*30
$GPRMC,202018.635,A,5026.488,N,03030.022,E,038.9,247.4,110220,000.0,W*71
$GPGGA,202019.635,5026.482,N,03030.008,E,1,12,1.0,0.0,M,0.0,M,,*61
$GPGSA,A,3,01,02,03,04,05,06,07,08,09,10,11,12,1.0,1.0,1.0*30
$GPRMC,202019.635,A,5026.482,N,03030.008,E,038.9,247.4,110220,000.0,W*72
$GPGGA,202020.635,5026.476,N,03029.993,E,1,12,1.0,0.0,M,0.0,M,,*63
$GPGSA,A,3,01,02,03,04,05,06,07,08,09,10,11,12,1.0,1.0,1.0*30
$GPRMC,202020.635,A,5026.476,N,03029.993,E,038.9,247.4,110220,000.0,W*70
$GPGGA,202021.635,5026.470,N,03029.979,E,1,12,1.0,0.0,M,0.0,M,,*60
$GPGSA,A,3,01,02,03,04,05,06,07,08,09,10,11,12,1.0,1.0,1.0*30
$GPRMC,202021.635,A,5026.470,N,03029.979,E,038.9,247.4,110220,000.0,W*73
$GPGGA,202022.635,5026.464,N,03029.965,E,1,12,1.0,0.0,M,0.0,M,,*6B
$GPGSA,A,3,01,02,03,04,05,06,07,08,09,10,11,12,1.0,1.0,1.0*30
$GPRMC,202022.635,A,5026.464,N,03029.965,E,038.9,247.4,110220,000.0,W*78
$GPGGA,202023.635,5026.459,N,03029.951,E,1,12,1.0,0.0,M,0.0,M,,*63
$GPGSA,A,3,01,02,03,04,05,06,07,08,09,10,11,12,1.0,1.0,1.0*30
$GPRMC,202023.635,A,5026.459,N,03029.951,E,038.9,246.1,110220,000.0,W*74
$GPGGA,202024.635,5026.452,N,03029.937,E,1,12,1.0,0.0,M,0.0,M,,*6F
$GPGSA,A,3,01,02,03,04,05,06,07,08,09,10,11,12,1.0,1.0,1.0*30
$GPRMC,202024.635,A,5026.452,N,03029.937,E,038.9,246.1,110220,000.0,W*78
$GPGGA,202025.635,5026.446,N,03029.923,E,1,12,1.0,0.0,M,0.0,M,,*6E
$GPGSA,A,3,01,02,03,04,05,06,07,08,09,10,11,12,1.0,1.0,1.0*30
$GPRMC,202025.635,A,5026.446,N,03029.923,E,038.9,246.1,110220,000.0,W*79
$GPGGA,202026.635,5026.440,N,03029.909,E,1,12,1.0,0.0,M,0.0,M,,*63
$GPGSA,A,3,01,02,03,04,05,06,07,08,09,10,11,12,1.0,1.0,1.0*30
$GPRMC,202026.635,A,5026.440,N,03029.909,E,038.9,246.1,110220,000.0,W*74
$GPGGA,202027.635,5026.434,N,03029.895,E,1,12,1.0,0.0,M,0.0,M,,*65
$GPGSA,A,3,01,02,03,04,05,06,07,08,09,10,11,12,1.0,1.0,1.0*30
$GPRMC,202027.635,A,5026.434,N,03029.895,E,038.9,246.1,110220,000.0,W*72
$GPGGA,202028.635,5026.428,N,03029.881,E,1,12,1.0,0.0,M,0.0,M,,*62
$GPGSA,A,3,01,02,03,04,05,06,07,08,09,10,11,12,1.0,1.0,1.0*30
$GPRMC,202028.635,A,5026.428,N,03029.881,E,038.9,246.1,110220,000.0,W*75
$GPGGA,202029.635,5026.422,N,03029.867,E,1,12,1.0,0.0,M,0.0,M,,*61
$GPGSA,A,3,01,02,03,04,05,06,07,08,09,10,11,12,1.0,1.0,1.0*30
$GPRMC,202029.635,A,5026.422,N,03029.867,E,038.9,246.1,110220,000.0,W*76
$GPGGA,202030.635,5026.415,N,03029.853,E,1,12,1.0,0.0,M,0.0,M,,*6A
$GPGSA,A,3,01,02,03,04,05,06,07,08,09,10,11,12,1.0,1.0,1.0*30
$GPRMC,202030.635,A,5026.415,N,03029.853,E,038.9,246.1,110220,000.0,W*7D
$GPGGA,202031.635,5026.409,N,03029.839,E,1,12,1.0,0.0,M,0.0,M,,*6A
$GPGSA,A,3,01,02,03,04,05,06,07,08,09,10,11,12,1.0,1.0,1.0*30
$GPRMC,202031.635,A,5026.409,N,03029.839,E,038.9,246.1,110220,000.0,W*7D
$GPGGA,202032.635,5026.403,N,03029.825,E,1,12,1.0,0.0,M,0.0,M,,*6E
$GPGSA,A,3,01,02,03,04,05,06,07,08,09,10,11,12,1.0,1.0,1.0*30
$GPRMC,202032.635,A,5026.403,N,03029.825,E,038.9,246.1,110220,000.0,W*79
$GPGGA,202033.635,5026.397,N,03029.812,E,1,12,1.0,0.0,M,0.0,M,,*61
$GPGSA,A,3,01,02,03,04,05,06,07,08,09,10,11,12,1.0,1.0,1.0*30
$GPRMC,202033.635,A,5026.397,N,03029.812,E,038.9,246.1,110220,000.0,W*76
$GPGGA,202034.635,5026.391,N,03029.798,E,1,12,1.0,0.0,M,0.0,M,,*6D
$GPGSA,A,3,01,02,03,04,05,06,07,08,09,10,11,12,1.0,1.0,1.0*30
$GPRMC,202034.635,A,5026.391,N,03029.798,E,038.9,246.1,110220,000.0,W*7A
$GPGGA,202035.635,5026.385,N,03029.784,E,1,12,1.0,0.0,M,0.0,M,,*64
$GPGSA,A,3,01,02,03,04,05,06,07,08,09,10,11,12,1.0,1.0,1.0*30
$GPRMC,202035.635,A,5026.385,N,03029.784,E,038.9,246.1,110220,000.0,W*73
$GPGGA,202036.635,5026.379,N,03029.770,E,1,12,1.0,0.0,M,0.0,M,,*6F
$GPGSA,A,3,01,02,03,04,05,06,07,08,09,10,11,12,1.0,1.0,1.0*30
$GPRMC,202036.635,A,5026.379,N,03029.770,E,038.9,246.1,110220,000.0,W*78
$GPGGA,202037.635,5026.372,N,03029.756,E,1,12,1.0,0.0,M,0.0,M,,*61
$GPGSA,A,3,01,02,03,04,05,06,07,08,09,10,11,12,1.0,1.0,1.0*30
$GPRMC,202037.635,A,5026.372,N,03029.756,E,038.9,246.1,110220,000.0,W*76
$GPGGA,202038.635,5026.366,N,03029.742,E,1,12,1.0,0.0,M,0.0,M,,*6E
$GPGSA,A,3,01,02,03,04,05,06,07,08,09,10,11,12,1.0,1.0,1.0*30
$GPRMC,202038.635,A,5026.366,N,03029.742,E,038.9,246.1,110220,000.0,W*79
$GPGGA,202039.635,5026.360,N,03029.728,E,1,12,1.0,0.0,M,0.0,M,,*65
$GPGSA,A,3,01,02,03,04,05,06,07,08,09,10,11,12,1.0,1.0,1.0*30
$GPRMC,202039.635,A,5026.360,N,03029.728,E,038.9,246.1,110220,000.0,W*72
$GPGGA,202040.635,5026.354,N,03029.714,E,1,12,1.0,0.0,M,0.0,M,,*63
$GPGSA,A,3,01,02,03,04,05,06,07,08,09,10,11,12,1.0,1.0,1.0*30
$GPRMC,202040.635,A,5026.354,N,03029.714,E,038.9,246.1,110220,000.0,W*74
$GPGGA,202041.635,5026.348,N,03029.700,E,1,12,1.0,0.0,M,0.0,M,,*6A
$GPGSA,A,3,01,02,03,04,05,06,07,08,09,10,11,12,1.0,1.0,1.0*30
$GPRMC,202041.635,A,5026.348,N,03029.700,E,038.9,246.1,110220,000.0,W*7D
$GPGGA,202042.635,5026.342,N,03029.686,E,1,12,1.0,0.0,M,0.0,M,,*6C
$GPGSA,A,3,01,02,03,04,05,06,07,08,09,10,11,12,1.0,1.0,1.0*30
$GPRMC,202042.635,A,5026.342,N,03029.686,E,038.9,246.1,110220,000.0,W*7B
$GPGGA,202043.635,5026.335,N,03029.672,E,1,12,1.0,0.0,M,0.0,M,,*66
$GPGSA,A,3,01,02,03,04,05,06,07,08,09,10,11,12,1.0,1.0,1.0*30
$GPRMC,202043.635,A,5026.335,N,03029.672,E,038.9,242.5,110220,000.0,W*71
$GPGGA,202044.635,5026.329,N,03029.659,E,1,12,1.0,0.0,M,0.0,M,,*65
$GPGSA,A,3,01,02,03,04,05,06,07,08,09,10,11,12,1.0,1.0,1.0*30
$GPRMC,202044.635,A,5026.329,N,03029.659,E,038.9,242.5,110220,000.0,W*72
$GPGGA,202045.635,5026.322,N,03029.646,E,1,12,1.0,0.0,M,0.0,M,,*61
$GPGSA,A,3,01,02,03,04,05,06,07,08,09,10,11,12,1.0,1.0,1.0*30
$GPRMC,202045.635,A,5026.322,N,03029.646,E,038.9,242.5,110220,000.0,W*76
$GPGGA,202046.635,5026.315,N,03029.633,E,1,12,1.0,0.0,M,0.0,M,,*64
$GPGSA,A,3,01,02,03,04,05,06,07,08,09,10,11,12,1.0,1.0,1.0*30
$GPRMC,202046.635,A,5026.315,N,03029.633,E,038.9,242.5,110220,000.0,W*73
$GPGGA,202047.635,5026.308,N,03029.620,E,1,12,1.0,0.0,M,0.0,M,,*6B
$GPGSA,A,3,01,02,03,04,05,06,07,08,09,10,11,12,1.0,1.0,1.0*30
$GPRMC,202047.635,A,5026.308,N,03029.620,E,038.9,242.5,110220,000.0,W*7C
$GPGGA,202048.635,5026.301,N,03029.607,E,1,12,1.0,0.0,M,0.0,M,,*68
$GPGSA,A,3,01,02,03,04,05,06,07,08,09,10,11,12,1.0,1.0,1.0*30
$GPRMC,202048.635,A,5026.301,N,03029.607,E,038.9,222.2,110220,000.0,W*7E
$GPGGA,202049.635,5026.292,N,03029.598,E,1,12,1.0,0.0,M,0.0,M,,*67
$GPGSA,A,3,01,02,03,04,05,06,07,08,09,10,11,12,1.0,1.0,1.0*30
$GPRMC,202049.635,A,5026.292,N,03029.598,E,038.9,222.2,110220,000.0,W*71
$GPGGA,202050.635,5026.283,N,03029.590,E,1,12,1.0,0.0,M,0.0,M,,*67
$GPGSA,A,3,01,02,03,04,05,06,07,08,09,10,11,12,1.0,1.0,1.0*30
$GPRMC,202050.635,A,5026.283,N,03029.590,E,038.9,222.2,110220,000.0,W*71
$GPGGA,202051.635,5026.273,N,03029.581,E,1,12,1.0,0.0,M,0.0,M,,*69
$GPGSA,A,3,01,02,03,04,05,06,07,08,09,10,11,12,1.0,1.0,1.0*30
$GPRMC,202051.635,A,5026.273,N,03029.581,E,038.9,232.3,110220,000.0,W*7F
$GPGGA,202052.635,5026.265,N,03029.570,E,1,12,1.0,0.0,M,0.0,M,,*63
$GPGSA,A,3,01,02,03,04,05,06,07,08,09,10,11,12,1.0,1.0,1.0*30
$GPRMC,202052.635,A,5026.265,N,03029.570,E,038.9,232.3,110220,000.0,W*75
$GPGGA,202053.635,5026.257,N,03029.560,E,1,12,1.0,0.0,M,0.0,M,,*62
$GPGSA,A,3,01,02,03,04,05,06,07,08,09,10,11,12,1.0,1.0,1.0*30
$GPRMC,202053.635,A,5026.257,N,03029.560,E,038.9,238.8,110220,000.0,W*75
$GPGGA,202054.635,5026.249,N,03029.547,E,1,12,1.0,0.0,M,0.0,M,,*6F
$GPGSA,A,3,01,02,03,04,05,06,07,08,09,10,11,12,1.0,1.0,1.0*30
$GPRMC,202054.635,A,5026.249,N,03029.547,E,038.9,238.8,110220,000.0,W*78
$GPGGA,202055.635,5026.242,N,03029.535,E,1,12,1.0,0.0,M,0.0,M,,*60
$GPGSA,A,3,01,02,03,04,05,06,07,08,09,10,11,12,1.0,1.0,1.0*30
$GPRMC,202055.635,A,5026.242,N,03029.535,E,038.9,239.6,110220,000.0,W*78
$GPGGA,202056.635,5026.235,N,03029.522,E,1,12,1.0,0.0,M,0.0,M,,*65
$GPGSA,A,3,01,02,03,04,05,06,07,08,09,10,11,12,1.0,1.0,1.0*30
$GPRMC,202056.635,A,5026.235,N,03029.522,E,038.9,254.1,110220,000.0,W*71
$GPGGA,202057.635,5026.230,N,03029.507,E,1,12,1.0,0.0,M,0.0,M,,*66
$GPGSA,A,3,01,02,03,04,05,06,07,08,09,10,11,12,1.0,1.0,1.0*30
$GPRMC,202057.635,A,5026.230,N,03029.507,E,038.9,254.1,110220,000.0,W*72
$GPGGA,202058.635,5026.226,N,03029.492,E,1,12,1.0,0.0,M,0.0,M,,*63
$GPGSA,A,3,01,02,03,04,05,06,07,08,09,10,11,12,1.0,1.0,1.0*30
$GPRMC,202058.635,A,5026.226,N,03029.492,E,038.9,253.8,110220,000.0,W*79
$GPGGA,202059.635,5026.221,N,03029.476,E,1,12,1.0,0.0,M,0.0,M,,*6F
$GPGSA,A,3,01,02,03,04,05,06,07,08,09,10,11,12,1.0,1.0,1.0*30
$GPRMC,202059.635,A,5026.221,N,03029.476,E,038.9,253.8,110220,000.0,W*75
$GPGGA,202100.635,5026.217,N,03029.461,E,1,12,1.0,0.0,M,0.0,M,,*61
$GPGSA,A,3,01,02,03,04,05,06,07,08,09,10,11,12,1.0,1.0,1.0*30
$GPRMC,202100.635,A,5026.217,N,03029.461,E,038.9,253.8,110220,000.0,W*7B
$GPGGA,202101.635,5026.212,N,03029.445,E,1,12,1.0,0.0,M,0.0,M,,*63
$GPGSA,A,3,01,02,03,04,05,06,07,08,09,10,11,12,1.0,1.0,1.0*30
$GPRMC,202101.635,A,5026.212,N,03029.445,E,038.9,248.7,110220,000.0,W*7C
$GPGGA,202102.635,5026.207,N,03029.431,E,1,12,1.0,0.0,M,0.0,M,,*67
$GPGSA,A,3,01,02,03,04,05,06,07,08,09,10,11,12,1.0,1.0,1.0*30
$GPRMC,202102.635,A,5026.207,N,03029.431,E,038.9,248.7,110220,000.0,W*78
$GPGGA,202103.635,5026.201,N,03029.416,E,1,12,1.0,0.0,M,0.0,M,,*65
$GPGSA,A,3,01,02,03,04,05,06,07,08,09,10,11,12,1.0,1.0,1.0*30
$GPRMC,202103.635,A,5026.201,N,03029.416,E,038.9,248.7,110220,000.0,W*7A
$GPGGA,202104.635,5026.196,N,03029.402,E,1,12,1.0,0.0,M,0.0,M,,*6A
$GPGSA,A,3,01,02,03,04,05,06,07,08,09,10,11,12,1.0,1.0,1.0*30
$GPRMC,202104.635,A,5026.196,N,03029.402,E,038.9,242.6,110220,000.0,W*7E
$GPGGA,202105.635,5026.189,N,03029.389,E,1,12,1.0,0.0,M,0.0,M,,*61
$GPGSA,A,3,01,02,03,04,05,06,07,08,09,10,11,12,1.0,1.0,1.0*30
$GPRMC,202105.635,A,5026.189,N,03029.389,E,038.9,242.6,110220,000.0,W*75
$GPGGA,202106.635,5026.182,N,03029.376,E,1,12,1.0,0.0,M,0.0,M,,*69
$GPGSA,A,3,01,02,03,04,05,06,07,08,09,10,11,12,1.0,1.0,1.0*30
$GPRMC,202106.635,A,5026.182,N,03029.376,E,038.9,242.6,110220,000.0,W*7D
$GPGGA,202107.635,5026.175,N,03029.362,E,1,12,1.0,0.0,M,0.0,M,,*65
$GPGSA,A,3,01,02,03,04,05,06,07,08,09,10,11,12,1.0,1.0,1.0*30
$GPRMC,202107.635,A,5026.175,N,03029.362,E,038.9,242.6,110220,000.0,W*71
$GPGGA,202108.635,5026.168,N,03029.349,E,1,12,1.0,0.0,M,0.0,M,,*6F
$GPGSA,A,3,01,02,03,04,05,06,07,08,09,10,11,12,1.0,1.0,1.0*30
$GPRMC,202108.635,A,5026.168,N,03029.349,E,038.9,242.6,110220,000.0,W*7B
$GPGGA,202109.635,5026.162,N,03029.336,E,1,12,1.0,0.0,M,0.0,M,,*6C
$GPGSA,A,3,01,02,03,04,05,06,07,08,09,10,11,12,1.0,1.0,1.0*30
$GPRMC,202109.635,A,5026.162,N,03029.336,E,038.9,242.6,110220,000.0,W*78
$GPGGA,202110.635,5026.155,N,03029.323,E,1,12,1.0,0.0,M,0.0,M,,*64
$GPGSA,A,3,01,02,03,04,05,06,07,08,09,10,11,12,1.0,1.0,1.0*30
$GPRMC,202110.635,A,5026.155,N,03029.323,E,038.9,242.6,110220,000.0,W*70
$GPGGA,202111.635,5026.148,N,03029.310,E,1,12,1.0,0.0,M,0.0,M,,*69
$GPGSA,A,3,01,02,03,04,05,06,07,08,09,10,11,12,1.0,1.0,1.0*30
$GPRMC,202111.635,A,5026.148,N,03029.310,E,038.9,242.6,110220,000.0,W*7D
$GPGGA,202112.635,5026.141,N,03029.297,E,1,12,1.0,0.0,M,0.0,M,,*6D
$GPGSA,A,3,01,02,03,04,05,06,07,08,09,10,11,12,1.0,1.0,1.0*30
$GPRMC,202112.635,A,5026.141,N,03029.297,E,038.9,242.6,110220,000.0,W*79
$GPGGA,202113.635,5026.134,N,03029.283,E,1,12,1.0,0.0,M,0.0,M,,*6B
$GPGSA,A,3,01,02,03,04,05,06,07,08,09,10,11,12,1.0,1.0,1.0*30
$GPRMC,202113.635,A,5026.134,N,03029.283,E,038.9,242.6,110220,000.0,W*7F
$GPGGA,202114.635,5026.128,N,03029.270,E,1,12,1.0,0.0,M,0.0,M,,*6D
$GPGSA,A,3,01,02,03,04,05,06,07,08,09,10,11,12,1.0,1.0,1.0*30
$GPRMC,202114.635,A,5026.128,N,03029.270,E,038.9,242.6,110220,000.0,W*79
$GPGGA,202115.635,5026.121,N,03029.257,E,1,12,1.0,0.0,M,0.0,M,,*60
$GPGSA,A,3,01,02,03,04,05,06,07,08,09,10,11,12,1.0,1.0,1.0*30
$GPRMC,202115.635,A,5026.121,N,03029.257,E,038.9,242.6,110220,000.0,W*74
$GPGGA,202116.635,5026.114,N,03029.244,E,1,12,1.0,0.0,M,0.0,M,,*67
$GPGSA,A,3,01,02,03,04,05,06,07,08,09,10,11,12,1.0,1.0,1.0*30
$GPRMC,202116.635,A,5026.114,N,03029.244,E,038.9,242.6,110220,000.0,W*73
$GPGGA,202117.635,5026.107,N,03029.231,E,1,12,1.0,0.0,M,0.0,M,,*66
$GPGSA,A,3,01,02,03,04,05,06,07,08,09,10,11,12,1.0,1.0,1.0*30
$GPRMC,202117.635,A,5026.107,N,03029.231,E,038.9,242.6,110220,000.0,W*72
$GPGGA,202118.635,5026.100,N,03029.218,E,1,12,1.0,0.0,M,0.0,M,,*65
$GPGSA,A,3,01,02,03,04,05,06,07,08,09,10,11,12,1.0,1.0,1.0*30
$GPRMC,202118.635,A,5026.100,N,03029.218,E,038.9,242.6,110220,000.0,W*71
$GPGGA,202119.635,5026.094,N,03029.204,E,1,12,1.0,0.0,M,0.0,M,,*65
$GPGSA,A,3,01,02,03,04,05,06,07,08,09,10,11,12,1.0,1.0,1.0*30
$GPRMC,202119.635,A,5026.094,N,03029.204,E,038.9,242.6,110220,000.0,W*71
$GPGGA,202120.635,5026.087,N,03029.191,E,1,12,1.0,0.0,M,0.0,M,,*62
$GPGSA,A,3,01,02,03,04,05,06,07,08,09,10,11,12,1.0,1.0,1.0*30
$GPRMC,202120.635,A,5026.087,N,03029.191,E,038.9,242.6,110220,000.0,W*76
$GPGGA,202121.635,5026.080,N,03029.178,E,1,12,1.0,0.0,M,0.0,M,,*63
$GPGSA,A,3,01,02,03,04,05,06,07,08,09,10,11,12,1.0,1.0,1.0*30
$GPRMC,202121.635,A,5026.080,N,03029.178,E,038.9,242.6,110220,000.0,W*77
$GPGGA,202122.635,5026.073,N,03029.165,E,1,12,1.0,0.0,M,0.0,M,,*60
$GPGSA,A,3,01,02,03,04,05,06,07,08,09,10,11,12,1.0,1.0,1.0*30
$GPRMC,202122.635,A,5026.073,N,03029.165,E,038.9,242.6,110220,000.0,W*74
$GPGGA,202123.635,5026.066,N,03029.152,E,1,12,1.0,0.0,M,0.0,M,,*61
$GPGSA,A,3,01,02,03,04,05,06,07,08,09,10,11,12,1.0,1.0,1.0*30
$GPRMC,202123.635,A,5026.066,N,03029.152,E,038.9,244.5,110220,000.0,W*70
$GPGGA,202124.635,5026.060,N,03029.138,E,1,12,1.0,0.0,M,0.0,M,,*6C
$GPGSA,A,3,01,02,03,04,05,06,07,08,09,10,11,12,1.0,1.0,1.0*30
$GPRMC,202124.635,A,5026.060,N,03029.138,E,038.9,244.5,110220,000.0,W*7D
$GPGGA,202125.635,5026.054,N,03029.125,E,1,12,1.0,0.0,M,0.0,M,,*66
$GPGSA,A,3,01,02,03,04,05,06,07,08,09,10,11,12,1.0,1.0,1.0*30
$GPRMC,202125.635,A,5026.054,N,03029.125,E,038.9,244.5,110220,000.0,W*77
$GPGGA,202126.635,5026.047,N,03029.111,E,1,12,1.0,0.0,M,0.0,M,,*60
$GPGSA,A,3,01,02,03,04,05,06,07,08,09,10,11,12,1.0,1.0,1.0*30
$GPRMC,202126.635,A,5026.047,N,03029.111,E,038.9,244.5,110220,000.0,W*71
$GPGGA,202127.635,5026.041,N,03029.097,E,1,12,1.0,0.0,M,0.0,M,,*68
$GPGSA,A,3,01,02,03,04,05,06,07,08,09,10,11,12,1.0,1.0,1.0*30
$GPRMC,202127.635,A,5026.041,N,03029.097,E,038.9,244.5,110220,000.0,W*79
$GPGGA,202128.635,5026.034,N,03029.084,E,1,12,1.0,0.0,M,0.0,M,,*67
$GPGSA,A,3,01,02,03,04,05,06,07,08,09,10,11,12,1.0,1.0,1.0*30
$GPRMC,202128.635,A,5026.034,N,03029.084,E,038.9,244.5,110220,000.0,W*76
$GPGGA,202129.635,5026.028,N,03029.070,E,1,12,1.0,0.0,M,0.0,M,,*60
$GPGSA,A,3,01,02,03,04,05,06,07,08,09,10,11,12,1.0,1.0,1.0*30
$GPRMC,202129.635,A,5026.028,N,03029.070,E,038.9,244.5,110220,000.0,W*71
$GPGGA,202130.635,5026.021,N,03029.057,E,1,12,1.0,0.0,M,0.0,M,,*64
$GPGSA,A,3,01,02,03,04,05,06,07,08,09,10,11,12,1.0,1.0,1.0*30
$GPRMC,202130.635,A,5026.021,N,03029.057,E,038.9,250.0,110220,000.0,W*75
$GPGGA,202131.635,5026.016,N,03029.042,E,1,12,1.0,0.0,M,0.0,M,,*65
$GPGSA,A,3,01,02,03,04,05,06,07,08,09,10,11,12,1.0,1.0,1.0*30
$GPRMC,202131.635,A,5026.016,N,03029.042,E,038.9,250.0,110220,000.0,W*74
$GPGGA,202132.635,5026.011,N,03029.027,E,1,12,1.0,0.0,M,0.0,M,,*62
$GPGSA,A,3,01,02,03,04,05,06,07,08,09,10,11,12,1.0,1.0,1.0*30
$GPRMC,202132.635,A,5026.011,N,03029.027,E,038.9,250.0,110220,000.0,W*73
$GPGGA,202133.635,5026.005,N,03029.013,E,1,12,1.0,0.0,M,0.0,M,,*61
$GPGSA,A,3,01,02,03,04,05,06,07,08,09,10,11,12,1.0,1.0,1.0*30
$GPRMC,202133.635,A,5026.005,N,03029.013,E,038.9,260.1,110220,000.0,W*72
$GPGGA,202134.635,5026.002,N,03028.996,E,1,12,1.0,0.0,M,0.0,M,,*64
$GPGSA,A,3,01,02,03,04,05,06,07,08,09,10,11,12,1.0,1.0,1.0*30
$GPRMC,202134.635,A,5026.002,N,03028.996,E,038.9,260.1,110220,000.0,W*77
$GPGGA,202135.635,5026.000,N,03028.980,E,1,12,1.0,0.0,M,0.0,M,,*60
$GPGSA,A,3,01,02,03,04,05,06,07,08,09,10,11,12,1.0,1.0,1.0*30
$GPRMC,202135.635,A,5026.000,N,03028.980,E,038.9,260.1,110220,000.0,W*73
$GPGGA,202136.635,5025.997,N,03028.964,E,1,12,1.0,0.0,M,0.0,M,,*6D
$GPGSA,A,3,01,02,03,04,05,06,07,08,09,10,11,12,1.0,1.0,1.0*30
$GPRMC,202136.635,A,5025.997,N,03028.964,E,038.9,260.1,110220,000.0,W*7E
$GPGGA,202137.635,5025.994,N,03028.947,E,1,12,1.0,0.0,M,0.0,M,,*6E
$GPGSA,A,3,01,02,03,04,05,06,07,08,09,10,11,12,1.0,1.0,1.0*30
$GPRMC,202137.635,A,5025.994,N,03028.947,E,038.9,260.1,110220,000.0,W*7D
$GPGGA,202138.635,5025.991,N,03028.931,E,1,12,1.0,0.0,M,0.0,M,,*65
$GPGSA,A,3,01,02,03,04,05,06,07,08,09,10,11,12,1.0,1.0,1.0*30
$GPRMC,202138.635,A,5025.991,N,03028.931,E,038.9,260.1,110220,000.0,W*76
$GPGGA,202139.635,5025.988,N,03028.915,E,1,12,1.0,0.0,M,0.0,M,,*6A
$GPGSA,A,3,01,02,03,04,05,06,07,08,09,10,11,12,1.0,1.0,1.0*30
$GPRMC,202139.635,A,5025.988,N,03028.915,E,038.9,260.1,110220,000.0,W*79
$GPGGA,202140.635,5025.985,N,03028.898,E,1,12,1.0,0.0,M,0.0,M,,*6D
$GPGSA,A,3,01,02,03,04,05,06,07,08,09,10,11,12,1.0,1.0,1.0*30
$GPRMC,202140.635,A,5025.985,N,03028.898,E,038.9,260.1,110220,000.0,W*7E
$GPGGA,202141.635,5025.982,N,03028.882,E,1,12,1.0,0.0,M,0.0,M,,*60
$GPGSA,A,3,01,02,03,04,05,06,07,08,09,10,11,12,1.0,1.0,1.0*30
$GPRMC,202141.635,A,5025.982,N,03028.882,E,038.9,260.1,110220,000.0,W*73
$GPGGA,202142.635,5025.980,N,03028.865,E,1,12,1.0,0.0,M,0.0,M,,*68
$GPGSA,A,3,01,02,03,04,05,06,07,08,09,10,11,12,1.0,1.0,1.0*30
$GPRMC,202142.635,A,5025.980,N,03028.865,E,038.9,260.1,110220,000.0,W*7B
$GPGGA,202143.635,5025.977,N,03028.849,E,1,12,1.0,0.0,M,0.0,M,,*6F
$GPGSA,A,3,01,02,03,04,05,06,07,08,09,10,11,12,1.0,1.0,1.0*30
$GPRMC,202143.635,A,5025.977,N,03028.849,E,038.9,260.1,110220,000.0,W*7C
$GPGGA,202144.635,5025.974,N,03028.833,E,1,12,1.0,0.0,M,0.0,M,,*66
$GPGSA,A,3,01,02,03,04,05,06,07,08,09,10,11,12,1.0,1.0,1.0*30
$GPRMC,202144.635,A,5025.974,N,03028.833,E,038.9,260.1,110220,000.0,W*75
$GPGGA,202145.635,5025.971,N,03028.816,E,1,12,1.0,0.0,M,0.0,M,,*65
$GPGSA,A,3,01,02,03,04,05,06,07,08,09,10,11,12,1.0,1.0,1.0*30
$GPRMC,202145.635,A,5025.971,N,03028.816,E,038.9,260.1,110220,000.0,W*76
$GPGGA,202146.635,5025.968,N,03028.800,E,1,12,1.0,0.0,M,0.0,M,,*69
$GPGSA,A,3,01,02,03,04,05,06,07,08,09,10,11,12,1.0,1.0,1.0*30
$GPRMC,202146.635,A,5025.968,N,03028.800,E,038.9,260.1,110220,000.0,W*7A
$GPGGA,202147.635,5025.965,N,03028.784,E,1,12,1.0,0.0,M,0.0,M,,*66
$GPGSA,A,3,01,02,03,04,05,06,07,08,09,10,11,12,1.0,1.0,1.0*30
$GPRMC,202147.635,A,5025.965,N,03028.784,E,038.9,258.1,110220,000.0,W*7E
$GPGGA,202148.635,5025.962,N,03028.768,E,1,12,1.0,0.0,M,0.0,M,,*6C
$GPGSA,A,3,01,02,03,04,05,06,07,08,09,10,11,12,1.0,1.0,1.0*30
$GPRMC,202148.635,A,5025.962,N,03028.768,E,038.9,258.1,110220,000.0,W*74
